[
  {
    "category":null,
    "city":null,
    "description":"advice for migrants",
    "district":null,
    "entryId":"555a2abbed834",
    "event":null,
    "initiative":null,
    "lat":null,
    "locale":"en",
    "lon":null,
    "mail":"",
    "marketEntry":null,
    "name":"Cabana migration advice",
    "openingHours":null,
    "persistenceObjectIdentifier":"0f93b97a-969b-499b-9c62-38a90215093a",
    "phone":"",
    "rating":null,
    "scope":null,
    "street":null,
    "type":0,
    "web":"",
    "zip":null,
    "id":"0f93b97a-969b-499b-9c62-38a90215093a"
  },
  {
    "category":null,
    "city":"Dresden",
    "description":"Bereitstellung eines bedarfsorientierten und individuellen Beratungsangebots f\u00fcr Migranten",
    "district":"dis1",
    "entryId":"555a2abbed834",
    "event":null,
    "initiative":{
      "name":"Cabana",
      "id":"5e4807ec-48d5-cefd-62fc-d30d9b1998e2"
    },
    "lat":"51.0491571",
    "locale":"de",
    "lon":"13.7391965",
    "mail":"cabana@infozentrum-dresden.de",
    "marketEntry":null,
    "name":"Cabana Migrationsberatung",
    "openingHours":"Montag 10-13 und 13-16; Dienstag 13-17; Mittwoch 14-17; Freitag 10-13",
    "persistenceObjectIdentifier":"498cb726-681d-469c-9f7c-109b6e43e36d",
    "phone":"(0351) 492 33 67, (0351) 492 33 62",
    "rating":3,
    "scope":false,
    "street":"Kreuzstra\u00dfe 7",
    "type":0,
    "web":"http:\/\/www.infozentrum-dresden.de",
    "zip":"01067",
    "id":"498cb726-681d-469c-9f7c-109b6e43e36d"
  },
  {
    "category":null,
    "city":"Dresden",
    "dateFrom":null,
    "dateTo":null,
    "dateDay":"19.05.2015",
    "datePeriodic":null,
    "description":"Unsere WG grillt an der Elbe und lädt euch herzlich zu einem interkulturellen Abend ein. Lasst uns ein paar schöne Stunden des Elbesommers gemeinsam verbringen. Wir sind 5 Studenten und sprechen Deutsch, Englisch und Französisch.",
    "district":"dis1",
    "entryId":"555a2abbed834",
    "event":null,
    "initiative": null,
    "lat":"51.062407",
    "locale":"de",
    "lon":"13.771057",
    "mail":null,
    "marketEntry":{
      "name":"WG Grillen",
      "id":"000"
    },
    "name":null,
    "openingHours":null,
    "offer":true,
    "persistenceObjectIdentifier":"498cb726-681d-469c-9f7c-109b6e43e36d",
    "phone":null,
    "rating":3,
    "scope":false,
    "street":"Elberadweg in Johannstadt",
    "time":[19,0],
    "type":1,
    "web":null,
    "zip":null,
    "id":"498cb726-681d-469c-9f7c-109b6e43e36d"
  },
  {
    "category":null,
    "city":"Dresden",
    "description":"...",
    "district":"dis1",
    "entryId":"555a2abbed834",
    "event":null,
    "initiative": null,
    "lat":"51.04229",
    "locale":"de",
    "lon":"13.79701",
    "mail":null,
    "marketEntry":null,
    "name":"Sozialamt Dresden",
    "openingHours":null,
    "persistenceObjectIdentifier":"498cb726-681d-469c-9f7c-109b6e43e36d",
    "phone":"0351 4884861",
    "rating":3,
    "scope":null,
    "street":"Junghansstraße 2",
    "type":3,
    "web":null,
    "zip":"01277",
    "id":"498cb726-681d-469c-9f7c-109b6e43e36d"
  }
]